{
    "features": [
      {
        "type": "Feature",
        "properties": {
          "title": "Yes Farm",
          "address": "715 Yesler Way, Seattle, WA 98104"
        },
        "geometry": {
          "coordinates": [-122.323831, 47.601715],
          "type": "Point"
        }
      },
      {
        "type": "Feature",
        "properties": {
          "title": "Marra Farm",
          "address": "9026 4th Ave S, Seattle, WA 98108"
        },
        "geometry": {
          "coordinates": [-122.3294611, 47.5220358],
          "type": "Point"
        }
      },
      {
        "type": "Feature",
        "properties": {
          "title": "Angel Morgan",
          "address": "3956 S Morgan St, Seattle, WA 98118"
        },
        "geometry": {
          "coordinates": [-122.2831964, 47.5445029],
          "type": "Point"
        }
      },
      {
        "type": "Feature",
        "properties": {
          "title": "Ballard",
          "address": "8527 25th Ave NW, Seattle, WA 98117"
        },
        "geometry": {
          "coordinates": [-122.3914513, 47.6914606],
          "type": "Point"
        }
      },
      {
        "type": "Feature",
        "properties": {
          "title": "Barton Street",
          "address": "SW Barton St & 34th Ave SW, Seattle, WA 98126"
        },
        "geometry": {
          "coordinates": [-122.3765166, 47.5210725],
          "type": "Point"
        }
      },
      {
        "type": "Feature",
        "properties": {
          "title": "Beacon Bluff",
          "address": "1201 15th Ave S, Seattle, WA 98144"
        },
        "geometry": {
          "coordinates": [-122.3142172, 47.5885793],
          "type": "Point"
        }
      },
      {
        "type": "Feature",
        "properties": {
          "title": "Beacon Food Forest",
          "address": "S Dakota St, Seattle, WA 98108"
        },
        "geometry": {
          "coordinates": [-122.3156644, 47.5672453],
          "type": "Point"
        }
      },
      {
        "type": "Feature",
        "properties": {
          "title": "Belltown",
          "address": "2520 Elliott Ave. Seattle, WA 98121"
        },
        "geometry": {
          "coordinates": [-122.3515381, 47.6139662],
          "type": "Point"
        }
      },
      {
        "type": "Feature",
        "properties": {
          "title": "Bitter Lake",
          "address": "Linden Ave N & N 143rd St, Seattle, WA 98133"
        },
        "geometry": {
          "coordinates": [-122.3483208, 47.7323222],
          "type": "Point"
        }
      }
    ],
    "type": "FeatureCollection"
  }